{
    "meta_info": {
        "range_from": 0,
        "range_to": 266,
        "total_count": 267
    },
    "cities": [
        {
            "id": "7967",
            "name": "Biggera Waters",
            "slug": "biggera-waters",
            "lat": -27.9308,
            "lon": 153.3961,
            "country": "AU"
        },
        {
            "id": "7969",
            "name": "Southport",
            "slug": "southport-7c4f9cbb-94c7-4cbd-88e3-15480097912a",
            "lat": -27.973794,
            "lon": 153.4183144,
            "country": "AU"
        },
        {
            "id": "7968",
            "name": "Surfers Paradise",
            "slug": "surfers-paradise",
            "lat": -28,
            "lon": 153.416667,
            "country": "AU"
        },
        {
            "id": "7908",
            "name": "Woodlands",
            "slug": "woodlands",
            "lat": -28.0064121,
            "lon": 153.3872416,
            "country": "AU"
        },
        {
            "id": "7956",
            "name": "Nerang",
            "slug": "nerang",
            "lat": -27.995556,
            "lon": 153.322222,
            "country": "AU"
        },
        {
            "id": "7966",
            "name": "Broadbeach",
            "slug": "broadbeach",
            "lat": -28.030833,
            "lon": 153.431944,
            "country": "AU"
        },
        {
            "id": "7971",
            "name": "Robina",
            "slug": "robina",
            "lat": -28.066667,
            "lon": 153.383333,
            "country": "AU"
        },
        {
            "id": "7957",
            "name": "Stapylton",
            "slug": "stapylton",
            "lat": -27.730278,
            "lon": 153.244444,
            "country": "AU"
        },
        {
            "id": "7960",
            "name": "Loganholme",
            "slug": "loganholme",
            "lat": -27.684444,
            "lon": 153.189722,
            "country": "AU"
        },
        {
            "id": "7948",
            "name": "Coolangatta",
            "slug": "coolangatta",
            "lat": -28.1683,
            "lon": 153.539,
            "country": "AU"
        },
        {
            "id": "7962",
            "name": "Victoria Point",
            "slug": "victoria-point",
            "lat": -27.583333,
            "lon": 153.3,
            "country": "AU"
        },
        {
            "id": "7953",
            "name": "Tweed Heads",
            "slug": "tweed-heads",
            "lat": -28.1817,
            "lon": 153.547,
            "country": "AU"
        },
        {
            "id": "7959",
            "name": "Browns Plains",
            "slug": "browns-plains",
            "lat": -27.6620444,
            "lon": 153.0530248,
            "country": "AU"
        },
        {
            "id": "7986",
            "name": "Capalaba",
            "slug": "capalaba",
            "lat": -27.522994,
            "lon": 153.1927,
            "country": "AU"
        },
        {
            "id": "7983",
            "name": "Sunnybank",
            "slug": "sunnybank",
            "lat": -27.579,
            "lon": 153.059,
            "country": "AU"
        },
        {
            "id": "7999",
            "name": "Upper Mt Gravatt",
            "slug": "upper-mt-gravatt",
            "lat": -27.555278,
            "lon": 153.079722,
            "country": "AU"
        },
        {
            "id": "7988",
            "name": "Carindale",
            "slug": "carindale",
            "lat": -27.5094997,
            "lon": 153.1148552,
            "country": "AU"
        },
        {
            "id": "7965",
            "name": "Springfield Central",
            "slug": "springfield-central",
            "lat": -27.6853621,
            "lon": 152.9058822,
            "country": "AU"
        },
        {
            "id": "7992",
            "name": "New Farm",
            "slug": "new-farm",
            "lat": -27.468,
            "lon": 153.048,
            "country": "AU"
        },
        {
            "id": "7982",
            "name": "Graceville",
            "slug": "graceville",
            "lat": -27.520922,
            "lon": 152.980912,
            "country": "AU"
        },
        {
            "id": "7995",
            "name": "Bulimba",
            "slug": "bulimba",
            "lat": -27.45,
            "lon": 153.058,
            "country": "AU"
        },
        {
            "id": "7978",
            "name": "South Brisbane",
            "slug": "south-brisbane",
            "lat": -27.47665,
            "lon": 153.01667,
            "country": "AU"
        },
        {
            "id": "7976",
            "name": "Brisbane",
            "slug": "brisbane",
            "lat": -27.469,
            "lon": 153.023,
            "country": "AU"
        },
        {
            "id": "7980",
            "name": "Indooroopilly",
            "slug": "indooroopilly",
            "lat": -27.4984,
            "lon": 152.9712,
            "country": "AU"
        },
        {
            "id": "7987",
            "name": "Toombul",
            "slug": "toombul",
            "lat": -27.408965,
            "lon": 153.061878,
            "country": "AU"
        },
        {
            "id": "7958",
            "name": "Redbank",
            "slug": "redbank",
            "lat": -27.6,
            "lon": 152.866667,
            "country": "AU"
        },
        {
            "id": "7990",
            "name": "Stafford",
            "slug": "stafford",
            "lat": -27.4119,
            "lon": 153.0102,
            "country": "AU"
        },
        {
            "id": "7993",
            "name": "Chermside",
            "slug": "chermside",
            "lat": -27.3859344,
            "lon": 153.0294751,
            "country": "AU"
        },
        {
            "id": "7994",
            "name": "Strathpine",
            "slug": "strathpine",
            "lat": -27.3013875,
            "lon": 152.9882693,
            "country": "AU"
        },
        {
            "id": "7981",
            "name": "Kippa-Ring",
            "slug": "kippa-ring",
            "lat": -27.2255,
            "lon": 153.0844,
            "country": "AU"
        },
        {
            "id": "20194",
            "name": "North Lakes",
            "slug": "North Lakes",
            "lat": -27.234167,
            "lon": 153.020556,
            "country": "AU"
        },
        {
            "id": "7944",
            "name": "Byron Bay",
            "slug": "byron-bay",
            "lat": -28.6483,
            "lon": 153.618,
            "country": "AU"
        },
        {
            "id": "7985",
            "name": "Morayfield",
            "slug": "morayfield",
            "lat": -27.105278,
            "lon": 152.9475,
            "country": "AU"
        },
        {
            "id": "7945",
            "name": "Ballina",
            "slug": "ballina-6bd59ba2-cd7f-42d5-b6dc-b9a0dcd5c91b",
            "lat": -28.8635,
            "lon": 153.562,
            "country": "AU"
        },
        {
            "id": "8006",
            "name": "Caloundra",
            "slug": "caloundra",
            "lat": -26.7982,
            "lon": 153.135,
            "country": "AU"
        },
        {
            "id": "24536",
            "name": "Buddina",
            "slug": "buddina",
            "lat": -26.69,
            "lon": 153.134,
            "country": "AU"
        },
        {
            "id": "8005",
            "name": "Maroochydore",
            "slug": "maroochydore",
            "lat": -26.6557,
            "lon": 153.095,
            "country": "AU"
        },
        {
            "id": "8003",
            "name": "Nambour",
            "slug": "nambour",
            "lat": -26.6263,
            "lon": 152.959,
            "country": "AU"
        },
        {
            "id": "7901",
            "name": "Warwick",
            "slug": "warwick-c5c7769f-42d7-43d2-8240-d500a4e78eca",
            "lat": -28.2165,
            "lon": 152.031,
            "country": "AU"
        },
        {
            "id": "7973",
            "name": "Toowoomba",
            "slug": "toowoomba",
            "lat": -27.561,
            "lon": 151.953,
            "country": "AU"
        },
        {
            "id": "8011",
            "name": "Noosa Heads",
            "slug": "noosa-heads",
            "lat": -26.3971,
            "lon": 153.09,
            "country": "AU"
        },
        {
            "id": "20549",
            "name": "Tenterfield",
            "slug": "Tenterfield",
            "lat": -29.0575678,
            "lon": 152.0189859,
            "country": "AU"
        },
        {
            "id": "20195",
            "name": "Grafton",
            "slug": "Grafton-d68312d1-e102-4e4d-9c31-4d74280a322a",
            "lat": -29.6816894,
            "lon": 152.9336547,
            "country": "AU"
        },
        {
            "id": "8010",
            "name": "Gympie",
            "slug": "gympie",
            "lat": -26.1951,
            "lon": 152.656,
            "country": "AU"
        },
        {
            "id": "20546",
            "name": "Dalby",
            "slug": "Dalby",
            "lat": -27.1944226,
            "lon": 151.2659802,
            "country": "AU"
        },
        {
            "id": "7937",
            "name": "Coffs Harbour",
            "slug": "coffs-harbour",
            "lat": -30.2962,
            "lon": 153.114,
            "country": "AU"
        },
        {
            "id": "20548",
            "name": "Glen Innes",
            "slug": "Glen Innes",
            "lat": -29.7518376,
            "lon": 151.7361891,
            "country": "AU"
        },
        {
            "id": "7938",
            "name": "Sawtell",
            "slug": "sawtell",
            "lat": -30.369,
            "lon": 153.1,
            "country": "AU"
        },
        {
            "id": "8016",
            "name": "Hervey Bay",
            "slug": "hervey-bay",
            "lat": -25.2986,
            "lon": 152.854,
            "country": "AU"
        },
        {
            "id": "7933",
            "name": "Nambucca Heads",
            "slug": "nambucca-heads",
            "lat": -30.6449,
            "lon": 152.992,
            "country": "AU"
        },
        {
            "id": "7939",
            "name": "Inverell",
            "slug": "inverell",
            "lat": -29.7761,
            "lon": 151.113,
            "country": "AU"
        },
        {
            "id": "8002",
            "name": "Chinchilla",
            "slug": "chinchilla",
            "lat": -26.7417,
            "lon": 150.623,
            "country": "AU"
        },
        {
            "id": "7936",
            "name": "Armidale",
            "slug": "armidale",
            "lat": -30.5134,
            "lon": 151.667,
            "country": "AU"
        },
        {
            "id": "7947",
            "name": "Goondiwindi",
            "slug": "goondiwindi",
            "lat": -28.5473,
            "lon": 150.307,
            "country": "AU"
        },
        {
            "id": "8017",
            "name": "Bundaberg",
            "slug": "bundaberg",
            "lat": -24.8653,
            "lon": 152.352,
            "country": "AU"
        },
        {
            "id": "7928",
            "name": "Port Macquarie",
            "slug": "port-macquarie",
            "lat": -31.43,
            "lon": 152.91,
            "country": "AU"
        },
        {
            "id": "7925",
            "name": "Laurieton",
            "slug": "laurieton",
            "lat": -31.6508,
            "lon": 152.796,
            "country": "AU"
        },
        {
            "id": "7926",
            "name": "Tamworth",
            "slug": "tamworth-d016e448-e20f-49d0-8fe7-0870f65c2754",
            "lat": -31.0901,
            "lon": 150.929,
            "country": "AU"
        },
        {
            "id": "7924",
            "name": "Taree",
            "slug": "taree",
            "lat": -31.9129,
            "lon": 152.461,
            "country": "AU"
        },
        {
            "id": "20191",
            "name": "Narrabri",
            "slug": "Narrabri",
            "lat": -30.33240619999999,
            "lon": 149.7812403,
            "country": "AU"
        },
        {
            "id": "7894",
            "name": "Tuncurry",
            "slug": "tuncurry",
            "lat": -32.1756,
            "lon": 152.498,
            "country": "AU"
        },
        {
            "id": "11641",
            "name": "Nelson Bay",
            "slug": "Nelson Bay",
            "lat": -32.7218,
            "lon": 152.144,
            "country": "AU"
        },
        {
            "id": "7892",
            "name": "Muswellbrook",
            "slug": "muswellbrook",
            "lat": -32.2688,
            "lon": 150.893,
            "country": "AU"
        },
        {
            "id": "7878",
            "name": "Raymond Terrace",
            "slug": "raymond-terrace",
            "lat": -32.7611,
            "lon": 151.746,
            "country": "AU"
        },
        {
            "id": "7891",
            "name": "Singleton",
            "slug": "singleton",
            "lat": -32.5664,
            "lon": 151.173,
            "country": "AU"
        },
        {
            "id": "7872",
            "name": "Glendale",
            "slug": "glendale-66ac9797-1105-4f23-9be7-f716fd658a56",
            "lat": -32.9267174,
            "lon": 151.6508831,
            "country": "AU"
        },
        {
            "id": "7882",
            "name": "Kotara",
            "slug": "kotara",
            "lat": -32.9433965,
            "lon": 151.6976421,
            "country": "AU"
        },
        {
            "id": "7871",
            "name": "Charlestown",
            "slug": "charlestown",
            "lat": -32.965,
            "lon": 151.685,
            "country": "AU"
        },
        {
            "id": "8025",
            "name": "North Rockhampton",
            "slug": "north-rockhampton",
            "lat": -23.3790772,
            "lon": 150.510016,
            "country": "AU"
        },
        {
            "id": "7879",
            "name": "Lake Haven",
            "slug": "lake-haven",
            "lat": -33.24,
            "lon": 151.501,
            "country": "AU"
        },
        {
            "id": "7880",
            "name": "The Entrance",
            "slug": "the-entrance",
            "lat": -33.3483,
            "lon": 151.501,
            "country": "AU"
        },
        {
            "id": "7866",
            "name": "Erina",
            "slug": "erina",
            "lat": -33.44,
            "lon": 151.393,
            "country": "AU"
        },
        {
            "id": "7867",
            "name": "Avoca Beach",
            "slug": "avoca-beach",
            "lat": -33.465,
            "lon": 151.435,
            "country": "AU"
        },
        {
            "id": "7860",
            "name": "Ettalong Beach",
            "slug": "ettalong-beach",
            "lat": -33.515,
            "lon": 151.335,
            "country": "AU"
        },
        {
            "id": "20063",
            "name": "Avalon Beach",
            "slug": "Avalon Beach",
            "lat": -33.6302836,
            "lon": 151.3297698,
            "country": "AU"
        },
        {
            "id": "7844",
            "name": "Warriewood",
            "slug": "warriewood",
            "lat": -33.69404,
            "lon": 151.30093,
            "country": "AU"
        },
        {
            "id": "7847",
            "name": "Collaroy",
            "slug": "collaroy",
            "lat": -33.73,
            "lon": 151.3,
            "country": "AU"
        },
        {
            "id": "7840",
            "name": "Brookvale",
            "slug": "brookvale",
            "lat": -33.7653,
            "lon": 151.27041,
            "country": "AU"
        },
        {
            "id": "7838",
            "name": "Hornsby",
            "slug": "hornsby",
            "lat": -33.702,
            "lon": 151.1,
            "country": "AU"
        },
        {
            "id": "11642",
            "name": "Rouse Hill",
            "slug": "Rouse Hill",
            "lat": -33.68162,
            "lon": 150.91552,
            "country": "AU"
        },
        {
            "id": "11620",
            "name": "Roseville",
            "slug": "Roseville-3626fd11-e73b-406d-b710-dceb5c00bdc7",
            "lat": -33.78903,
            "lon": 151.17119,
            "country": "AU"
        },
        {
            "id": "7846",
            "name": "Castle Hill",
            "slug": "castle-hill",
            "lat": -33.72925,
            "lon": 151.00402,
            "country": "AU"
        },
        {
            "id": "7841",
            "name": "Chatswood",
            "slug": "chatswood",
            "lat": -33.80077,
            "lon": 151.1796,
            "country": "AU"
        },
        {
            "id": "7833",
            "name": "Cremorne",
            "slug": "cremorne",
            "lat": -33.82886939999999,
            "lon": 151.2255485,
            "country": "AU"
        },
        {
            "id": "7831",
            "name": "North Ryde",
            "slug": "north-ryde",
            "lat": -33.79242,
            "lon": 151.11954,
            "country": "AU"
        },
        {
            "id": "7865",
            "name": "Ryde",
            "slug": "ryde-6f7a59d3-e0e4-4423-a4e9-eafc0e15d454",
            "lat": -33.815278,
            "lon": 151.101111,
            "country": "AU"
        },
        {
            "id": "20192",
            "name": "Darlinghurst",
            "slug": "Darlinghurst",
            "lat": -33.8780176,
            "lon": 151.2204441,
            "country": "AU"
        },
        {
            "id": "7836",
            "name": "Rhodes",
            "slug": "rhodes",
            "lat": -33.82821,
            "lon": 151.08569,
            "country": "AU"
        },
        {
            "id": "11622",
            "name": "Bondi Junction",
            "slug": "Bondi Junction",
            "lat": -33.89145,
            "lon": 151.2497,
            "country": "AU"
        },
        {
            "id": "5276",
            "name": "Paddington",
            "slug": "paddington",
            "lat": -33.88477,
            "lon": 151.22621,
            "country": "AU"
        },
        {
            "id": "7768",
            "name": "Phillip",
            "slug": "phillip",
            "lat": -33.8784665,
            "lon": 151.2081723,
            "country": "AU"
        },
        {
            "id": "7850",
            "name": "Surry Hills",
            "slug": "surry-hills",
            "lat": -33.886111,
            "lon": 151.211111,
            "country": "AU"
        },
        {
            "id": "7824",
            "name": "Broadway",
            "slug": "broadway",
            "lat": -33.8843868,
            "lon": 151.1967108,
            "country": "AU"
        },
        {
            "id": "7828",
            "name": "Blacktown",
            "slug": "blacktown",
            "lat": -33.771,
            "lon": 150.9063,
            "country": "AU"
        },
        {
            "id": "7822",
            "name": "Moore Park",
            "slug": "moore-park",
            "lat": -33.89655,
            "lon": 151.21998,
            "country": "AU"
        },
        {
            "id": "7835",
            "name": "Parramatta",
            "slug": "parramatta",
            "lat": -33.815,
            "lon": 151.001111,
            "country": "AU"
        },
        {
            "id": "7825",
            "name": "Randwick",
            "slug": "randwick",
            "lat": -33.91643,
            "lon": 151.23653,
            "country": "AU"
        },
        {
            "id": "7827",
            "name": "Newtown",
            "slug": "newtown-dab737c2-800c-4aa2-ba3e-997274b8b817",
            "lat": -33.897,
            "lon": 151.1793,
            "country": "AU"
        },
        {
            "id": "7832",
            "name": "Burwood",
            "slug": "burwood",
            "lat": -33.8772,
            "lon": 151.1049,
            "country": "AU"
        },
        {
            "id": "11618",
            "name": "Mount Druitt",
            "slug": "Mount Druitt",
            "lat": -33.7722,
            "lon": 150.8194,
            "country": "AU"
        },
        {
            "id": "7839",
            "name": "Pagewood",
            "slug": "pagewood",
            "lat": -33.9421,
            "lon": 151.22287,
            "country": "AU"
        },
        {
            "id": "7817",
            "name": "Penrith",
            "slug": "penrith-63b58aff-661e-490b-9f3e-68b0325223d9",
            "lat": -33.7511,
            "lon": 150.694,
            "country": "AU"
        },
        {
            "id": "7823",
            "name": "Bankstown",
            "slug": "bankstown",
            "lat": -33.91817,
            "lon": 151.03497,
            "country": "AU"
        },
        {
            "id": "7849",
            "name": "Beverly Hills",
            "slug": "beverly-hills-80fdf833-da95-4438-be49-224e92fb9a8d",
            "lat": -33.9513,
            "lon": 151.07938,
            "country": "AU"
        },
        {
            "id": "7834",
            "name": "Hurstville",
            "slug": "hurstville",
            "lat": -33.966667,
            "lon": 151.1,
            "country": "AU"
        },
        {
            "id": "7816",
            "name": "Glenbrook",
            "slug": "glenbrook",
            "lat": -33.766667,
            "lon": 150.619444,
            "country": "AU"
        },
        {
            "id": "7842",
            "name": "Liverpool",
            "slug": "liverpool-e18e5df6-1234-4daf-b04c-1c1652b987ee",
            "lat": -33.9198,
            "lon": 150.926,
            "country": "AU"
        },
        {
            "id": "7830",
            "name": "Cronulla",
            "slug": "cronulla",
            "lat": -34.05744,
            "lon": 151.15219,
            "country": "AU"
        },
        {
            "id": "7813",
            "name": "Katoomba",
            "slug": "katoomba",
            "lat": -33.7138,
            "lon": 150.312,
            "country": "AU"
        },
        {
            "id": "7815",
            "name": "Campbelltown",
            "slug": "campbelltown",
            "lat": -34.0637,
            "lon": 150.821,
            "country": "AU"
        },
        {
            "id": "20064",
            "name": "Narellan",
            "slug": "Narellan",
            "lat": -34.04511,
            "lon": 150.73706,
            "country": "AU"
        },
        {
            "id": "7859",
            "name": "Bathurst",
            "slug": "bathurst-362c3fc3-4023-4653-8d10-640fae046e2a",
            "lat": -33.4181,
            "lon": 149.579,
            "country": "AU"
        },
        {
            "id": "8024",
            "name": "Emerald",
            "slug": "emerald",
            "lat": -23.527291,
            "lon": 148.164573,
            "country": "AU"
        },
        {
            "id": "7858",
            "name": "Orange",
            "slug": "orange-016fd063-7d9f-428c-b12d-766aa0eb4e8f",
            "lat": -33.282,
            "lon": 149.097,
            "country": "AU"
        },
        {
            "id": "7808",
            "name": "Wollongong",
            "slug": "wollongong",
            "lat": -34.4244,
            "lon": 150.894,
            "country": "AU"
        },
        {
            "id": "7809",
            "name": "Warrawong",
            "slug": "warrawong",
            "lat": -34.484444,
            "lon": 150.8875,
            "country": "AU"
        },
        {
            "id": "7806",
            "name": "Shellharbour",
            "slug": "shellharbour",
            "lat": -34.5789,
            "lon": 150.867,
            "country": "AU"
        },
        {
            "id": "7798",
            "name": "Nowra",
            "slug": "nowra",
            "lat": -34.8741,
            "lon": 150.6,
            "country": "AU"
        },
        {
            "id": "7797",
            "name": "Huskisson",
            "slug": "huskisson",
            "lat": -35.0385,
            "lon": 150.671,
            "country": "AU"
        },
        {
            "id": "7857",
            "name": "Forbes",
            "slug": "forbes",
            "lat": -33.3843,
            "lon": 148.01,
            "country": "AU"
        },
        {
            "id": "7796",
            "name": "Goulburn",
            "slug": "goulburn",
            "lat": -34.7524,
            "lon": 149.72,
            "country": "AU"
        },
        {
            "id": "7771",
            "name": "Sussex Inlet",
            "slug": "sussex-inlet",
            "lat": -35.1564,
            "lon": 150.599,
            "country": "AU"
        },
        {
            "id": "8027",
            "name": "Mackay",
            "slug": "mackay-32406ab2-9fc6-48ac-9789-290ee28f8474",
            "lat": -21.142,
            "lon": 149.187,
            "country": "AU"
        },
        {
            "id": "8028",
            "name": "North Mackay",
            "slug": "north-mackay",
            "lat": -21.120903,
            "lon": 149.1816923,
            "country": "AU"
        },
        {
            "id": "7758",
            "name": "Batemans Bay",
            "slug": "batemans-bay",
            "lat": -35.7072,
            "lon": 150.178,
            "country": "AU"
        },
        {
            "id": "7765",
            "name": "Belconnen",
            "slug": "belconnen",
            "lat": -35.2392,
            "lon": 149.068,
            "country": "AU"
        },
        {
            "id": "7764",
            "name": "Canberra",
            "slug": "canberra",
            "lat": -35.2819,
            "lon": 149.129,
            "country": "AU"
        },
        {
            "id": "7756",
            "name": "Narooma",
            "slug": "narooma",
            "lat": -36.219,
            "lon": 150.132,
            "country": "AU"
        },
        {
            "id": "7755",
            "name": "Cooma",
            "slug": "cooma",
            "lat": -36.2356,
            "lon": 149.126,
            "country": "AU"
        },
        {
            "id": "7763",
            "name": "Wagga Wagga",
            "slug": "wagga-wagga",
            "lat": -35.115,
            "lon": 147.368,
            "country": "AU"
        },
        {
            "id": "8035",
            "name": "Bowen",
            "slug": "bowen",
            "lat": -20.0107,
            "lon": 148.247,
            "country": "AU"
        },
        {
            "id": "7746",
            "name": "Merimbula",
            "slug": "merimbula",
            "lat": -36.8882,
            "lon": 149.91,
            "country": "AU"
        },
        {
            "id": "7802",
            "name": "Griffith",
            "slug": "griffith",
            "lat": -34.2871,
            "lon": 146.055,
            "country": "AU"
        },
        {
            "id": "7754",
            "name": "Jindabyne",
            "slug": "jindabyne",
            "lat": -36.4171,
            "lon": 148.62,
            "country": "AU"
        },
        {
            "id": "7757",
            "name": "Albury",
            "slug": "albury",
            "lat": -36.0805,
            "lon": 146.916,
            "country": "AU"
        },
        {
            "id": "8032",
            "name": "Charters Towers",
            "slug": "charters-towers",
            "lat": -20.0714,
            "lon": 146.271,
            "country": "AU"
        },
        {
            "id": "8039",
            "name": "Townsville City",
            "slug": "townsville-city",
            "lat": -19.2589635,
            "lon": 146.8169483,
            "country": "AU"
        },
        {
            "id": "7745",
            "name": "Bright",
            "slug": "bright",
            "lat": -36.7285,
            "lon": 146.961,
            "country": "AU"
        },
        {
            "id": "21198",
            "name": "Yarrawonga",
            "slug": "Yarrawonga",
            "lat": -36.0271135,
            "lon": 145.9990577,
            "country": "AU"
        },
        {
            "id": "7750",
            "name": "Wangaratta",
            "slug": "wangaratta",
            "lat": -36.3563,
            "lon": 146.323,
            "country": "AU"
        },
        {
            "id": "7731",
            "name": "Bairnsdale",
            "slug": "bairnsdale",
            "lat": -37.8255,
            "lon": 147.63,
            "country": "AU"
        },
        {
            "id": "7744",
            "name": "Swanpool",
            "slug": "swanpool",
            "lat": -36.7625013,
            "lon": 145.999449,
            "country": "AU"
        },
        {
            "id": "7749",
            "name": "Shepparton",
            "slug": "shepparton",
            "lat": -36.3811,
            "lon": 145.399,
            "country": "AU"
        },
        {
            "id": "8040",
            "name": "Ingham",
            "slug": "ingham",
            "lat": -18.6476,
            "lon": 146.16,
            "country": "AU"
        },
        {
            "id": "7748",
            "name": "Echuca",
            "slug": "echuca",
            "lat": -36.1281,
            "lon": 144.752,
            "country": "AU"
        },
        {
            "id": "7762",
            "name": "Swan Hill",
            "slug": "swan-hill",
            "lat": -35.3393,
            "lon": 143.559,
            "country": "AU"
        },
        {
            "id": "7673",
            "name": "Morwell",
            "slug": "morwell",
            "lat": -38.2366,
            "lon": 146.399,
            "country": "AU"
        },
        {
            "id": "7671",
            "name": "Warragul",
            "slug": "warragul",
            "lat": -38.1589,
            "lon": 145.934,
            "country": "AU"
        },
        {
            "id": "20633",
            "name": "Eaglehawk",
            "slug": "Eaglehawk",
            "lat": -36.716667,
            "lon": 144.25,
            "country": "AU"
        },
        {
            "id": "7740",
            "name": "Bendigo",
            "slug": "bendigo",
            "lat": -36.7589,
            "lon": 144.283,
            "country": "AU"
        },
        {
            "id": "7706",
            "name": "Croydon",
            "slug": "croydon-a2d184ce-8178-43d2-8035-e23e146f2ca6",
            "lat": -37.796,
            "lon": 145.281,
            "country": "AU"
        },
        {
            "id": "7695",
            "name": "Greensborough",
            "slug": "greensborough",
            "lat": -37.686,
            "lon": 145.117,
            "country": "AU"
        },
        {
            "id": "7707",
            "name": "Boronia",
            "slug": "boronia",
            "lat": -37.86199999999999,
            "lon": 145.286,
            "country": "AU"
        },
        {
            "id": "7708",
            "name": "Epping",
            "slug": "epping-918d359a-03d5-4985-b820-05957bbf5f4d",
            "lat": -37.638,
            "lon": 145.01,
            "country": "AU"
        },
        {
            "id": "11634",
            "name": "Craigieburn",
            "slug": "Craigieburn",
            "lat": -37.59400000000001,
            "lon": 144.934,
            "country": "AU"
        },
        {
            "id": "11626",
            "name": "Doncaster",
            "slug": "Doncaster-8527d957-076d-4d7a-b0fa-ae233819e801",
            "lat": -37.787,
            "lon": 145.124,
            "country": "AU"
        },
        {
            "id": "7701",
            "name": "Wantirna South",
            "slug": "wantirna-south",
            "lat": -37.881,
            "lon": 145.224,
            "country": "AU"
        },
        {
            "id": "7705",
            "name": "Forest Hill",
            "slug": "forest-hill",
            "lat": -37.842,
            "lon": 145.172,
            "country": "AU"
        },
        {
            "id": "7694",
            "name": "Preston",
            "slug": "preston-2ab965dd-2e31-4d34-bc78-09b4cf20e28e",
            "lat": -37.74299999999999,
            "lon": 145.008,
            "country": "AU"
        },
        {
            "id": "7716",
            "name": "Glen Waverley",
            "slug": "glen-waverley",
            "lat": -37.8856521,
            "lon": 145.165179,
            "country": "AU"
        },
        {
            "id": "7704",
            "name": "Broadmeadows",
            "slug": "broadmeadows",
            "lat": -37.685,
            "lon": 144.925,
            "country": "AU"
        },
        {
            "id": "11629",
            "name": "Coburg North",
            "slug": "Coburg North",
            "lat": -37.726,
            "lon": 144.96,
            "country": "AU"
        },
        {
            "id": "7711",
            "name": "Fountain Gate",
            "slug": "fountain-gate",
            "lat": -38.0182149,
            "lon": 145.3028189,
            "country": "AU"
        },
        {
            "id": "7691",
            "name": "Hawthorn East",
            "slug": "hawthorn-east",
            "lat": -37.831,
            "lon": 145.05,
            "country": "AU"
        },
        {
            "id": "7979",
            "name": "Hawthorne",
            "slug": "hawthorne-172d8509-7a59-4d68-adb9-cba9fe3462ba",
            "lat": -37.826,
            "lon": 145.034,
            "country": "AU"
        },
        {
            "id": "7734",
            "name": "Sunbury",
            "slug": "sunbury",
            "lat": -37.5797,
            "lon": 144.73,
            "country": "AU"
        },
        {
            "id": "7692",
            "name": "Chadstone",
            "slug": "chadstone",
            "lat": -37.88627719999999,
            "lon": 145.0829501,
            "country": "AU"
        },
        {
            "id": "7683",
            "name": "Airport West",
            "slug": "airport-west",
            "lat": -37.724,
            "lon": 144.879,
            "country": "AU"
        },
        {
            "id": "7688",
            "name": "Carlton",
            "slug": "carlton",
            "lat": -37.8001,
            "lon": 144.9671,
            "country": "AU"
        },
        {
            "id": "7690",
            "name": "Melbourne",
            "slug": "melbourne-8c8d83a2-0cce-4edc-bc75-9d1708dbfa23",
            "lat": -37.8142,
            "lon": 144.963,
            "country": "AU"
        },
        {
            "id": "7700",
            "name": "South Yarra",
            "slug": "south-yarra",
            "lat": -37.84,
            "lon": 144.989,
            "country": "AU"
        },
        {
            "id": "7679",
            "name": "Maribyrnong",
            "slug": "maribyrnong",
            "lat": -37.77,
            "lon": 144.893,
            "country": "AU"
        },
        {
            "id": "7693",
            "name": "Southbank",
            "slug": "southbank",
            "lat": -37.829,
            "lon": 144.957,
            "country": "AU"
        },
        {
            "id": "7680",
            "name": "Taylor Lakes",
            "slug": "taylor-lakes",
            "lat": -37.701,
            "lon": 144.796,
            "country": "AU"
        },
        {
            "id": "7702",
            "name": "Elsternwick",
            "slug": "elsternwick",
            "lat": -37.887,
            "lon": 145.006,
            "country": "AU"
        },
        {
            "id": "7678",
            "name": "Yarraville",
            "slug": "yarraville",
            "lat": -37.817,
            "lon": 144.89,
            "country": "AU"
        },
        {
            "id": "7713",
            "name": "Cheltenham",
            "slug": "cheltenham-8eccf7a3-2e18-41f8-a3d1-a891420686bb",
            "lat": -37.967,
            "lon": 145.068,
            "country": "AU"
        },
        {
            "id": "7747",
            "name": "Charlton",
            "slug": "charlton",
            "lat": -36.2686,
            "lon": 143.352,
            "country": "AU"
        },
        {
            "id": "7684",
            "name": "Sunshine",
            "slug": "sunshine",
            "lat": -37.781,
            "lon": 144.832,
            "country": "AU"
        },
        {
            "id": "7668",
            "name": "Frankston",
            "slug": "frankston",
            "lat": -38.1445,
            "lon": 145.127,
            "country": "AU"
        },
        {
            "id": "7681",
            "name": "Melton",
            "slug": "melton",
            "lat": -37.6836,
            "lon": 144.583,
            "country": "AU"
        },
        {
            "id": "7687",
            "name": "Werribee",
            "slug": "werribee",
            "lat": -37.9008,
            "lon": 144.662,
            "country": "AU"
        },
        {
            "id": "7669",
            "name": "Mornington",
            "slug": "mornington",
            "lat": -38.2194,
            "lon": 145.039,
            "country": "AU"
        },
        {
            "id": "8015",
            "name": "Maryborough",
            "slug": "maryborough",
            "lat": -37.0466,
            "lon": 143.738,
            "country": "AU"
        },
        {
            "id": "8047",
            "name": "Earlville",
            "slug": "earlville-4a6c8d80-6389-4357-912d-7c3a1d74e29e",
            "lat": -16.9508397,
            "lon": 145.7328348,
            "country": "AU"
        },
        {
            "id": "8046",
            "name": "Cairns City",
            "slug": "cairns-city",
            "lat": -16.9205,
            "lon": 145.772,
            "country": "AU"
        },
        {
            "id": "7667",
            "name": "Dromana",
            "slug": "dromana",
            "lat": -38.338,
            "lon": 144.965,
            "country": "AU"
        },
        {
            "id": "19875",
            "name": "Rosebud",
            "slug": "Rosebud",
            "lat": -38.356,
            "lon": 144.918,
            "country": "AU"
        },
        {
            "id": "7682",
            "name": "Sorrento",
            "slug": "sorrento",
            "lat": -38.338889,
            "lon": 144.740833,
            "country": "AU"
        },
        {
            "id": "7664",
            "name": "Geelong",
            "slug": "geelong",
            "lat": -38.1493,
            "lon": 144.36,
            "country": "AU"
        },
        {
            "id": "20188",
            "name": "South Geelong",
            "slug": "South Geelong",
            "lat": -38.1673819,
            "lon": 144.3658474,
            "country": "AU"
        },
        {
            "id": "7732",
            "name": "Ararat",
            "slug": "ararat",
            "lat": -37.2843,
            "lon": 142.931,
            "country": "AU"
        },
        {
            "id": "20189",
            "name": "Renmark",
            "slug": "Renmark",
            "lat": -34.1742746,
            "lon": 140.7442855,
            "country": "AU"
        },
        {
            "id": "7666",
            "name": "Lorne",
            "slug": "lorne",
            "lat": -38.5412,
            "lon": 143.975,
            "country": "AU"
        },
        {
            "id": "7737",
            "name": "Horsham",
            "slug": "horsham-da69aeaa-f34e-4c50-b98f-f591b154f0e2",
            "lat": -36.7188618,
            "lon": 142.1962316,
            "country": "AU"
        },
        {
            "id": "7663",
            "name": "Colac",
            "slug": "colac",
            "lat": -38.34,
            "lon": 143.586,
            "country": "AU"
        },
        {
            "id": "20187",
            "name": "Apollo Bay",
            "slug": "Apollo Bay",
            "lat": -38.75,
            "lon": 143.65,
            "country": "AU"
        },
        {
            "id": "7660",
            "name": "Launceston",
            "slug": "launceston-d50b6b9f-9d32-42f5-8f70-08ef21290f8f",
            "lat": -41.4341,
            "lon": 147.137,
            "country": "AU"
        },
        {
            "id": "7677",
            "name": "Hamilton",
            "slug": "hamilton-e4dcd1b0-390f-4c02-92c2-168f6bb88550",
            "lat": -37.7436,
            "lon": 142.024,
            "country": "AU"
        },
        {
            "id": "7662",
            "name": "Warrnambool",
            "slug": "warrnambool",
            "lat": -38.3826,
            "lon": 142.481,
            "country": "AU"
        },
        {
            "id": "20547",
            "name": "Burnie",
            "slug": "Burnie",
            "lat": -41.0528583,
            "lon": 145.9052168,
            "country": "AU"
        },
        {
            "id": "8030",
            "name": "Mount Isa",
            "slug": "mount-isa",
            "lat": -20.729,
            "lon": 139.493,
            "country": "AU"
        },
        {
            "id": "20186",
            "name": "Portland",
            "slug": "Portland-ecc941f3-d2c8-41db-ade8-94fd12f4e5d7",
            "lat": -38.360895,
            "lon": 141.6041155,
            "country": "AU"
        },
        {
            "id": "7761",
            "name": "Murray Bridge",
            "slug": "murray-bridge",
            "lat": -35.12,
            "lon": 139.278,
            "country": "AU"
        },
        {
            "id": "7848",
            "name": "Auburn",
            "slug": "auburn-a2cdfc7d-5652-4643-8596-cd5414142245",
            "lat": -34.0264,
            "lon": 138.686,
            "country": "AU"
        },
        {
            "id": "7715",
            "name": "Richmond",
            "slug": "richmond-13c8b18a-98cb-4674-80b5-0cd1b7d778de",
            "lat": -42.7353,
            "lon": 147.438,
            "country": "AU"
        },
        {
            "id": "7676",
            "name": "Mount Gambier",
            "slug": "mount-gambier",
            "lat": -37.8284212,
            "lon": 140.7803529,
            "country": "AU"
        },
        {
            "id": "7783",
            "name": "Gawler",
            "slug": "gawler",
            "lat": -34.5966,
            "lon": 138.748,
            "country": "AU"
        },
        {
            "id": "7658",
            "name": "Rosny Park",
            "slug": "rosny-park",
            "lat": -42.866389,
            "lon": 147.369167,
            "country": "AU"
        },
        {
            "id": "7655",
            "name": "Glenorchy",
            "slug": "glenorchy",
            "lat": -42.833056,
            "lon": 147.275833,
            "country": "AU"
        },
        {
            "id": "7656",
            "name": "North Hobart",
            "slug": "north-hobart",
            "lat": -42.872222,
            "lon": 147.314444,
            "country": "AU"
        },
        {
            "id": "7657",
            "name": "Hobart",
            "slug": "hobart-b3543352-4d08-4f23-b11d-d8ed63ad9cec",
            "lat": -42.8825,
            "lon": 147.328,
            "country": "AU"
        },
        {
            "id": "7786",
            "name": "Mount Barker",
            "slug": "mount-barker",
            "lat": -35.0641,
            "lon": 138.859,
            "country": "AU"
        },
        {
            "id": "7784",
            "name": "Modbury",
            "slug": "modbury",
            "lat": -34.8328,
            "lon": 138.686,
            "country": "AU"
        },
        {
            "id": "20190",
            "name": "Port Pirie",
            "slug": "Port Pirie",
            "lat": -33.1708294,
            "lon": 138.0088567,
            "country": "AU"
        },
        {
            "id": "7774",
            "name": "Salisbury",
            "slug": "salisbury-ad3edee0-6443-41d7-a258-04814042aaab",
            "lat": -34.76391,
            "lon": 138.64228,
            "country": "AU"
        },
        {
            "id": "7889",
            "name": "Port Augusta",
            "slug": "port-augusta",
            "lat": -32.4909,
            "lon": 137.764,
            "country": "AU"
        },
        {
            "id": "7782",
            "name": "Kensington Park",
            "slug": "kensington-park",
            "lat": -34.9208593,
            "lon": 138.6551802,
            "country": "AU"
        },
        {
            "id": "7788",
            "name": "Gepps Cross",
            "slug": "gepps-cross",
            "lat": -34.841,
            "lon": 138.604,
            "country": "AU"
        },
        {
            "id": "7773",
            "name": "Norwood",
            "slug": "norwood-abf612fa-76a1-44ca-a458-5a2f94bb5f55",
            "lat": -34.923,
            "lon": 138.633,
            "country": "AU"
        },
        {
            "id": "7779",
            "name": "North Adelaide",
            "slug": "north-adelaide",
            "lat": -34.9061,
            "lon": 138.5939,
            "country": "AU"
        },
        {
            "id": "7776",
            "name": "Adelaide",
            "slug": "adelaide",
            "lat": -34.9274,
            "lon": 138.6,
            "country": "AU"
        },
        {
            "id": "7775",
            "name": "Torrens Park",
            "slug": "torrens-park",
            "lat": -34.986,
            "lon": 138.616,
            "country": "AU"
        },
        {
            "id": "7778",
            "name": "Goodwood",
            "slug": "goodwood",
            "lat": -34.952,
            "lon": 138.595,
            "country": "AU"
        },
        {
            "id": "7780",
            "name": "Kilkenny",
            "slug": "kilkenny-860e6e77-9ef4-49e1-a538-0303c08e961e",
            "lat": -34.8783839,
            "lon": 138.552493,
            "country": "AU"
        },
        {
            "id": "7777",
            "name": "Semaphore",
            "slug": "semaphore",
            "lat": -34.838889,
            "lon": 138.483889,
            "country": "AU"
        },
        {
            "id": "7787",
            "name": "West Lakes",
            "slug": "west-lakes",
            "lat": -34.875,
            "lon": 138.492,
            "country": "AU"
        },
        {
            "id": "20631",
            "name": "Robe",
            "slug": "Robe",
            "lat": -37.1748833,
            "lon": 139.8029173,
            "country": "AU"
        },
        {
            "id": "7781",
            "name": "Oaklands Park",
            "slug": "oaklands-park",
            "lat": -35.014,
            "lon": 138.545,
            "country": "AU"
        },
        {
            "id": "20193",
            "name": "Glenelg",
            "slug": "Glenelg",
            "lat": -34.982,
            "lon": 138.516,
            "country": "AU"
        },
        {
            "id": "7760",
            "name": "Noarlunga Centre",
            "slug": "noarlunga-centre",
            "lat": -35.1413,
            "lon": 138.495,
            "country": "AU"
        },
        {
            "id": "5277",
            "name": "Victor Harbor",
            "slug": "victor-harbor",
            "lat": -35.5546,
            "lon": 138.623,
            "country": "AU"
        },
        {
            "id": "7869",
            "name": "Whyalla Norrie",
            "slug": "whyalla-norrie",
            "lat": -33.0287093,
            "lon": 137.5422745,
            "country": "AU"
        },
        {
            "id": "7800",
            "name": "Port Lincoln",
            "slug": "port-lincoln",
            "lat": -34.7212,
            "lon": 135.859,
            "country": "AU"
        },
        {
            "id": "8053",
            "name": "Casuarina",
            "slug": "casuarina",
            "lat": -12.373333,
            "lon": 130.881667,
            "country": "AU"
        },
        {
            "id": "7929",
            "name": "South Kalgoorlie",
            "slug": "south-kalgoorlie",
            "lat": -30.7646672,
            "lon": 121.4770388,
            "country": "AU"
        },
        {
            "id": "7855",
            "name": "Esperance",
            "slug": "esperance",
            "lat": -33.8608027,
            "lon": 121.8896205,
            "country": "AU"
        },
        {
            "id": "20632",
            "name": "Djugun",
            "slug": "Djugun",
            "lat": -17.9416941,
            "lon": 122.2256803,
            "country": "AU"
        },
        {
            "id": "20537",
            "name": "Merredin",
            "slug": "Merredin",
            "lat": -31.4837097,
            "lon": 118.2770821,
            "country": "AU"
        },
        {
            "id": "8031",
            "name": "South Hedland",
            "slug": "south-hedland",
            "lat": -20.4,
            "lon": 118.616667,
            "country": "AU"
        },
        {
            "id": "7772",
            "name": "Albany",
            "slug": "albany-1cf5b27c-71be-4c09-8527-e104537e586a",
            "lat": -35.0275298,
            "lon": 117.883959,
            "country": "AU"
        },
        {
            "id": "7919",
            "name": "Midland",
            "slug": "midland-588d78ec-0fbb-4532-af6f-f3f06b99d78f",
            "lat": -31.889,
            "lon": 116.002,
            "country": "AU"
        },
        {
            "id": "7886",
            "name": "Armadale",
            "slug": "armadale",
            "lat": -32.1523,
            "lon": 116.015,
            "country": "AU"
        },
        {
            "id": "7906",
            "name": "Belmont",
            "slug": "belmont-2973a55e-b75d-4473-b880-9b20dede274f",
            "lat": -31.945,
            "lon": 115.927,
            "country": "AU"
        },
        {
            "id": "7920",
            "name": "Cannington",
            "slug": "cannington",
            "lat": -32.017,
            "lon": 115.934,
            "country": "AU"
        },
        {
            "id": "7897",
            "name": "Willetton",
            "slug": "willetton",
            "lat": -32.053,
            "lon": 115.889,
            "country": "AU"
        },
        {
            "id": "7900",
            "name": "Leederville",
            "slug": "leederville",
            "lat": -31.9315735,
            "lon": 115.8418249,
            "country": "AU"
        },
        {
            "id": "7895",
            "name": "Booragoon",
            "slug": "booragoon",
            "lat": -32.039,
            "lon": 115.831,
            "country": "AU"
        },
        {
            "id": "7903",
            "name": "Nedlands",
            "slug": "nedlands",
            "lat": -31.982,
            "lon": 115.807,
            "country": "AU"
        },
        {
            "id": "7898",
            "name": "Joondalup",
            "slug": "joondalup",
            "lat": -31.7431,
            "lon": 115.772,
            "country": "AU"
        },
        {
            "id": "7907",
            "name": "Currambine",
            "slug": "currambine",
            "lat": -31.732,
            "lon": 115.751,
            "country": "AU"
        },
        {
            "id": "7915",
            "name": "Hillarys",
            "slug": "hillarys",
            "lat": -31.807,
            "lon": 115.744,
            "country": "AU"
        },
        {
            "id": "7896",
            "name": "Fremantle",
            "slug": "fremantle",
            "lat": -32.0559,
            "lon": 115.746,
            "country": "AU"
        },
        {
            "id": "7885",
            "name": "Rockingham",
            "slug": "rockingham",
            "lat": -32.2814,
            "lon": 115.708,
            "country": "AU"
        },
        {
            "id": "7853",
            "name": "Bunbury",
            "slug": "bunbury",
            "lat": -33.3404,
            "lon": 115.634,
            "country": "AU"
        },
        {
            "id": "7810",
            "name": "Busselton",
            "slug": "busselton",
            "lat": -33.6445,
            "lon": 115.349,
            "country": "AU"
        },
        {
            "id": "7940",
            "name": "Geraldton",
            "slug": "geraldton",
            "lat": -28.7703,
            "lon": 114.615,
            "country": "AU"
        },
        {
            "id": "20634",
            "name": "Margaret River",
            "slug": "Margaret River",
            "lat": -33.955,
            "lon": 115.075,
            "country": "AU"
        },
        {
            "id": "21199",
            "name": "Newmarket",
            "slug": "Newmarket-cc16c85f-6a64-435a-bdd3-69ad21df6b40",
            "lat": null,
            "lon": null,
            "country": "AU"
        },
        {
            "id": "7910",
            "name": "Como",
            "slug": "como",
            "lat": 45.8107,
            "lon": 9.0863,
            "country": "AU"
        },
        {
            "id": "7703",
            "name": "Ringwood",
            "slug": "ringwood",
            "lat": 50.8469,
            "lon": -1.79142,
            "country": "AU"
        },
        {
            "id": "7904",
            "name": "Morley",
            "slug": "morley",
            "lat": 53.7441,
            "lon": -1.59886,
            "country": "AU"
        },
        {
            "id": "7942",
            "name": "Lismore",
            "slug": "lismore",
            "lat": 52.1369,
            "lon": -7.93309,
            "country": "AU"
        },
        {
            "id": "7837",
            "name": "Miranda",
            "slug": "miranda",
            "lat": -20.2401,
            "lon": -56.3845,
            "country": "AU"
        },
        {
            "id": "7820",
            "name": "Sydney",
            "slug": "sydney-7e5e06d0-a738-41eb-bd36-43db3834b7c8",
            "lat": 46.1369,
            "lon": -60.1917,
            "country": "AU"
        },
        {
            "id": "7789",
            "name": "Elizabeth",
            "slug": "elizabeth-725a3130-8bf1-4533-a5d9-7a11cba17899",
            "lat": 35.2157792,
            "lon": -80.8309453,
            "country": "AU"
        },
        {
            "id": "7767",
            "name": "Acton",
            "slug": "acton",
            "lat": 43.6297,
            "lon": -80.0415,
            "country": "AU"
        }
    ]
}